{
    "load": [{
        "city": [{
                "id": "0",
                "name": "Växjö",
                "lat": "56.8896732",
                "lng": "14.7241023"
            },

            {
                "id": "1",
                "name": "Borgholm",
                "lat": "56.8767044",
                "lng": "16.6551748"
            },

            {
                "id": "2",
                "name": "Kalmar",
                "lat": "56.6874856",
                "lng": "16.2927702"
            },

            {
                "id": "3",
                "name": "Ljungby",
                "lat": "56.8332166",
                "lng": "13.9061712"
            },

            {
                "id": "4",
                "name": "Älmhult",
                "lat": "56.5572994",
                "lng": "14.1011108"
            },

            {
                "id": "5",
                "name": "Emmaboda",
                "lat": "56.6426084",
                "lng": "15.2726087"
            },

            {
                "id": "6",
                "name": "Oskarshamn",
                "lat": "57.2660101",
                "lng": "16.3969464"
            },

            {
                "id": "7",
                "name": "Västervik",
                "lat": "57.7596064",
                "lng": "16.5925176"
            }

        ]
    }]
}
